area,name,lat,long,status,note,location
池尻,1-1,35.649113,139.678948,0,○,池尻三丁目公園南側
池尻,1-2,35.652274,139.681204,0,○,三菱電機(株)世田谷住宅北側
池尻,1-3,35.651232,139.680223,0,○,三菱電機(株)世田谷住宅西側
池尻,1-4,35.652657,139.678935,0,○,池尻見晴し広場西側
池尻,1-5,35.650154,139.678567,0,○,池尻三丁目公園北側
池尻,1-6,35.650843,139.682552,1,○,池尻クラブ南側
池尻,1-7,35.653506,139.680384,1,○,筑波大学附属駒場中・高等学校西側
池尻,1-8,35.652009,139.682773,1,○,三菱UFJ銀行池尻ビル北側
池尻,2-1,35.641631,139.683943,1,○,旧都立青鳥特別支援学校南側
池尻,2-2,35.643901,139.682623,1,○,世田谷公園東側（自衛隊中央病院前）
池尻,2-3,35.64241,139.683331,1,○,世田谷公園東側（旧東京都立青鳥特別支援学校前）
池尻,2-4,35.645835,139.678892,1,○,池尻小学校西側
池尻,2-5,35.646439,139.683414,1,○,都営池尻二丁目アパート８号棟南側
池尻,2-6,35.6452,139.679926,1,○,世田谷公園駐車場北側
池尻,2-7,35.645611,139.680672,1,○,池尻小学校南側
池尻,2-8,35.645912,139.681541,1,○,池尻２丁目体育館東側
三宿,3-1,35.65207,139.674289,1,○,多聞小学校南側
三宿,3-2,35.647759,139.676954,1,○,三宿小学校東側
三宿,3-3,35.651692,139.673516,1,○,三宿の森緑地北側
三宿,3-4,35.6506664,139.6742797,1,○,烏山川緑道
三宿,3-5,35.652819,139.674406,1,○,多聞小学校東側
三宿,3-6,35.651272,139.672963,1,○,三宿の森緑地西側
三宿,3-7,35.64817,139.676036,1,○,三宿小学校西側
三宿,3-8,35.6508438,139.6770291,1,○,烏山川緑道（三宿橋西）
太子堂,4-1,35.646543,139.667379,1,○,太子堂小学校東側
太子堂,4-2,35.65097,139.668648,1,○,太子堂中学校北側
太子堂,4-3,35.649148,139.665971,1,○,太子堂保育園北側
太子堂,4-4,35.649343,139.671896,1,○,したのやばし公園東側
太子堂,4-5,35.647252,139.665442,1,○,太子堂八幡広場南側
太子堂,4-6,35.650645,139.668405,1,○,太子堂中学校西側
太子堂,4-7,35.645971,139.667277,1,○,太子堂小学校南側
太子堂,4-8,35.650963,139.669321,1,○,太子堂中学校東側
太子堂,5-1,35.646571,139.674261,1,○,太子堂二丁目郵政宿舎東側
太子堂,5-2,35.643706,139.666191,1,○,第二たちばな荘西側
太子堂,5-3,35.644987,139.671123,1,○,三軒茶屋ふれあい広場東側
太子堂,5-4,35.645388,139.667829,1,○,目青不動教学院北側
太子堂,5-5,35.647404,139.671402,1,○,烏山川緑道（一善橋脇）
太子堂,5-6,35.645216,139.671931,1,○,太子堂やまもも公園東側
太子堂,5-7,35.6459215,139.6740403,1,○,太子堂サクラ通り広場北側
太子堂,5-8,35.6481035,139.6720572,1,○,烏山川緑道（山中橋北）
太子堂,6-1,35.643294,139.673022,1,○,財務省太子堂公務員宿舎西側
三軒茶屋,6-2,35.639795,139.673264,1,○,中里小学校西側
三軒茶屋,6-3,35.640423,139.669755,1,○,三軒茶屋保育園南側
太子堂,6-4,35.645363,139.678813,1,○,太子堂調理場東側
三軒茶屋,6-5,35.6392471,139.6738446,1,○,中里小学校南側
三軒茶屋,6-6,35.640151,139.67187,1,○,正蓮寺南側
太子堂,6-7,35.642328,139.674069,1,○,三軒茶屋住宅北西側
太子堂,6-8,35.64378,139.67355,1,○,財務省太子堂公務員宿舎北側
三軒茶屋,7-1,35.641401,139.66637,1,○,世田谷丸山公園北側
三軒茶屋,7-2,35.640909,139.662896,1,○,蛇崩川緑道（三軒茶屋小学校北）
三軒茶屋,7-3,35.6420924,139.6671853,1,○,防衛省共済組合三軒茶屋独身寮
三軒茶屋,7-4,35.642245,139.663966,1,○,三軒茶屋公園北側
三軒茶屋,7-5,35.640514,139.662984,1,○,三軒茶屋小学校北側
三軒茶屋,7-6,35.6401535,139.6615732,1,○,蛇崩川緑道（環七通り沿い）
三軒茶屋,7-7,35.6407659,139.667468,1,○,蛇崩川緑道（世田谷警察北）
三軒茶屋,7-8,35.640611,139.663635,1,○,三軒茶屋小学校東側
若林,8-1,35.646321,139.664353,1,○,烏山川緑道
若林,8-2,35.648308,139.664256,1,○,トヨタ自動車(株)若林社宅東側
若林,8-3,35.646833,139.66339,1,○,若林ふれあいひろば公園東側
若林,8-4,35.646245,139.66319,1,○,東京電力(株)東世田谷変電所北側
若林,8-5,35.649183,139.664364,1,○,東京電力(株)NO.55鉄塔西側
若林,8-6,35.643893,139.661814,1,○,世田谷若葉幼稚園南側
若林,8-7,35.649299,139.66491,1,○,東京電力(株)NO.55鉄塔北側
若林,8-8,35.6459684,139.6650612,1,○,烏山川緑道
若林,9-1,35.6467771,139.6585304,1,○,烏山川緑道（谷中橋東側）
若林,9-2,35.64517,139.660556,1,○,若林天満宮東側
若林,9-3,35.6428043,139.6583612,1,○,緑の小道
若林,9-4,35.650617,139.659371,1,○,教育総合センター東側
若林,9-5,35.642377,139.65815,1,○,UR都市機構世田谷通りシティハイツ若林北側
若林,9-6,35.649128,139.656523,1,○,若林小学校西側
若林,9-7,35.642242,139.658719,1,○,UR都市機構世田谷通りシティハイツ若林東側
若林,9-8,35.6486043,139.657059,1,○,若林児童館南側
梅丘,10-1,35.6508824,139.6548653,1,○,世田谷中学校北側
代田,10-2,35.654874,139.658649,1,○,旧代田保育園南側
代田,10-3,35.654715,139.657268,1,○,すみれ公園北側
梅丘,10-4,35.6513866,139.6547291,0,○,山崎小学校西側
梅丘,10-5,35.649912,139.657693,1,○,道路予定地南側
梅丘,10-6,35.6504933,139.6558046,1,○,世田谷中学校東側
梅丘,10-7,35.650056,139.654758,1,○,世田谷中学校南側
若林,11-1,35.648571,139.655758,1,○,若林こども公園南側
若林,11-2,35.647941,139.655562,1,○,若林公園北西側
世田谷,11-3,35.6470125,139.6525741,1,○,世田谷区役所西棟北側
世田谷,11-4,35.645862,139.651785,1,○,世田谷区役所第二庁舎南側
世田谷,11-5,35.645988,139.653071,1,○,世田谷区役所東棟北側工事フェンス
若林,11-6,35.647601,139.6548,1,○,若林公園北側
世田谷,11-7,35.64323,139.654888,1,○,世田谷四丁目公園西側
世田谷,11-8,35.642989,139.650419,1,○,世田谷駅南自転車等駐車場東側
世田谷,11-9,35.646504,139.651233,1,○,世田谷４－２２事務所西側
弦巻,12-1,35.6390248,139.6532213,1,○,弦巻小学校南側
世田谷,12-2,35.641246,139.650878,1,○,駐車場南側
弦巻,12-3,35.63916,139.65239,1,○,弦巻小学校西側
弦巻,12-4,35.6393633,139.6533825,1,○,弦巻小学校東側
弦巻,12-5,35.6397902,139.6527631,0,○,弦巻小学校北側
世田谷,12-6,35.640741,139.653777,0,○,(株)松栄運輸世田谷車庫脇フェンス
弦巻,13-1,35.636141,139.65271,0,○,事務センター南側
弦巻,13-2,35.637163,139.650019,0,○,弦巻中学校東側
弦巻,13-3,35.636335,139.649215,0,○,弦巻中学校南側
弦巻,13-4,35.635485,139.651629,0,○,東弦巻保育園南側
弦巻,13-5,35.637059,139.648544,0,○,弦巻中学校西側
弦巻,13-6,35.637752,139.647498,0,○,世田谷清掃事務所弦巻分室北側
弦巻,13-7,35.633812,139.653461,0,○,弦巻二丁目広場南側
弦巻,13-8,35.636591,139.651882,0,○,弦巻区民センター遊び場南側
弦巻,14-1,35.638958,139.644935,0,○,松丘小学校北側
弦巻,14-2,35.638919,139.643514,0,○,松丘小学校西側
弦巻,14-3,35.638291,139.642146,0,○,区営弦巻四丁目アパ－ト１号棟北側
弦巻,14-4,35.635331,139.645504,0,○,弦巻三丁目公園北側
弦巻,14-5,35.636656,139.645021,0,○,弦巻保育園東側
弦巻,14-6,35.636888,139.642874,0,○,弦巻４－２１北側
弦巻,14-7,35.638016,139.644882,0,○,教育会館東側
弦巻,14-8,35.637283,139.645536,0,○,弦巻どんぐり山公園北側
弦巻,15-1,35.63727,139.637393,0,○,日本中央競馬会弦巻公園南側
弦巻,15-2,35.638457,139.637381,0,○,日本中央競馬会本部舎宅駐車場北側
弦巻,15-3,35.6366014,139.6364058,0,○,馬事公苑関係者駐車場西側
弦巻,15-4,35.638072,139.640137,0,○,松丘公園南側
弦巻,15-5,35.63787,139.639013,0,○,松丘幼稚園南側
弦巻,15-6,35.637089,139.6407566,0,○,世田谷いちい保育園東側
弦巻,15-7,35.6358224,139.6380132,0,○,弦巻五丁目放置自転車等保管所北側
弦巻,15-8,35.638203,139.64005,0,○,松丘公園北側
世田谷,16-1,35.643161,139.644919,0,○,桜小学校西側
世田谷,16-2,35.6430694,139.6431319,0,○,上町児童館東側
世田谷,16-3,35.6404737,139.6404449,0,○,世田谷地区会館西側
桜,16-4,35.640687,139.634968,0,○,東京工業大学世田谷住宅１号棟東側
桜,16-5,35.64268,139.635223,0,○,東京農業大学稲花小学校北側
世田谷,16-6,35.640015,139.646507,0,○,浄光寺南側
世田谷,16-7,35.6446427,139.6476579,0,○,東京医療保健大学本館北側
世田谷,16-8,35.6435558,139.6484799,0,○,東京医療保健大学別館東側
桜,17-1,35.646199,139.642789,0,○,桜木中学校東側
桜,17-2,35.644822,139.64311,0,○,桜木ふれあい緑地東側
桜,17-3,35.6428362,139.6355944,0,○,区立桜保育園東側
桜,17-4,35.6425203,139.6363684,0,○,桜みんなの公園南側
桜,17-5,35.644266,139.635751,0,○,和光小学校北側
桜,17-6,35.6454806,139.6417801,0,○,桜木中学校南側
桜,17-7,35.642743,139.636497,0,○,桜みんなの公園西側
桜,17-8,35.646059,139.641672,0,○,桜木中学校北側
豪徳寺,18-1,35.6495241,139.6474704,0,○,豪徳寺北側
豪徳寺,18-2,35.6481078,139.6458009,0,○,豪徳寺南側
梅丘,18-3,35.6487297,139.6499951,0,○,城山小学校西側
梅丘,18-4,35.648093,139.650419,0,○,城山小学校南側
豪徳寺,18-5,35.6485644,139.6487259,0,○,豪徳寺東側
豪徳寺,18-6,35.648121,139.649502,0,○,駐車場北側
豪徳寺,18-7,35.6458044,139.647742,0,○,世田谷城阯公園東側
代田,19-1,35.653154,139.662256,0,○,天理教本月分教会東側
代田,19-2,35.651909,139.660887,0,○,都営代田一丁目第２アパート６号棟東側
代田,19-3,35.6533589,139.6620263,0,○,天理教本月分教会北側
代田,19-4,35.654865,139.6608647,0,○,円乗院東側
代田,19-5,35.6519994,139.6624175,0,○,花見堂複合施設北側
代田,19-6,35.6517007,139.6621896,0,○,花見堂複合施設南側
代田,19-7,35.6526901,139.6607043,0,○,代田南広場東側
梅丘,20-1,35.6540063,139.6539095,0,○,個人宅西側
豪徳寺,20-2,35.653975,139.648424,0,○,個人宅南側
豪徳寺,20-3,35.653572,139.64783,0,○,豪徳寺一丁目オリーブ公園
梅丘,20-4,35.653316,139.652507,0,○,梅丘複合施設東側
梅丘,20-5,35.652684,139.653218,0,○,梅丘児童遊園東側
梅丘,20-6,35.650028,139.652253,0,○,円光院幼稚園南側
梅丘,20-7,35.650319,139.6521,0,○,円光院幼稚園南西側
梅丘,20-8,35.6504731,139.65234,0,○,円光院幼稚園東側
宮坂,21-1,35.6474813,139.6375203,0,○,烏山川緑道（経堂大橋公園東）
宮坂,21-2,35.651853,139.644859,0,○,乗泉寺世田谷別院北側
宮坂,21-3,35.652855,139.644202,0,○,小田急クローゼット経堂Ｃ棟脇
宮坂,21-4,35.650706,139.644875,0,○,乗泉寺世田谷別院南側
宮坂,21-5,35.6509899,139.6410152,0,○,個人宅西側
宮坂,21-6,35.6465689,139.6419407,0,○,鷗友学園女子中学校・高等学校駐車場東側
宮坂,21-7,35.648155,139.644435,0,○,世田谷八幡宮南側
宮坂,21-8,35.6471879,139.6395164,0,○,鷗友学園女子中学校・高等学校西側
経堂,22-1,35.648548,139.630067,0,○,南台公園西側
桜丘,22-2,35.641674,139.630298,0,○,東京農業大学西側
桜丘,22-3,35.644605,139.630098,0,○,桜丘小学校南側
経堂,22-4,35.648037,139.628066,0,○,駐車場西側
経堂,22-5,35.645793,139.631283,0,○,経堂五丁目特別保護区東側
桜丘,22-6,35.645152,139.631426,0,○,桜丘小学校北側
経堂,22-7,35.64898,139.631444,0,○,烏山川緑道（新道橋脇）
経堂,22-8,35.646594,139.631413,0,○,大旺新洋(株)世田谷寮東側
桜丘,23-1,35.642132,139.626973,0,○,個人宅北側
桜丘,23-2,35.643847,139.630292,0,○,桜丘中学校東側
桜丘,23-3,35.644956,139.628414,0,○,都営桜丘二丁目第５アパート２４号棟東側
桜丘,23-4,35.642267,139.629648,0,○,桜丘貯水槽用地南側
桜丘,23-5,35.644217,139.628338,0,○,都営桜丘二丁目第２アパート２号棟西側
桜丘,23-6,35.640139,139.629878,0,○,桜丘南公園東側
桜丘,23-7,35.645585,139.626895,0,○,桜丘二丁目児童遊園東側
桜丘,23-8,35.6430525,139.6282734,0,○,桜丘三丁目児童遊園北側
桜丘,24-1,35.648353,139.617829,0,○,水道局南部支所駐車場北側
桜丘,24-2,35.6460066,139.6217334,0,○,笹原小学校北側
桜丘,24-3,35.645365,139.618284,0,○,桜丘５－３６遊び場北側
桜丘,24-4,35.6450398,139.6211994,0,○,笹原小学校南側
桜丘,24-5,35.644768,139.623927,0,○,個人宅南側
桜丘,24-6,35.641837,139.619263,0,○,桜丘すみれば自然庭園西側
桜丘,24-7,35.643166,139.625126,0,○,桜丘幼稚園東側
桜丘,24-8,35.646951,139.618551,0,○,弁天公園南側
経堂,25-1,35.650442,139.63031,0,○,烏山川緑道（石仏公園脇）
経堂,25-2,35.648446,139.632717,0,○,烏山川緑道（中村橋脇）
経堂,25-3,35.651942,139.632065,0,○,経堂地区会館西側
経堂,25-4,35.649693,139.632014,0,○,経堂一丁目整圧器室東側
経堂,25-5,35.6482998,139.6338951,0,○,烏山川緑道（中村橋脇）
経堂,25-6,35.650138,139.628172,0,○,経堂四丁目児童遊園北側
経堂,25-7,35.651325,139.627359,0,○,烏山川緑道（二本橋西）
経堂,25-8,35.650971,139.629177,0,○,烏山川緑道（二本橋東）
宮坂,26-1,35.656746,139.634617,0,○,東京電力(株)上北沢変電所北側
宮坂,26-2,35.654769,139.636956,0,○,山下西公園西側
宮坂,26-3,35.653888,139.637452,0,○,子ども・子育て総合センター東側
宮坂,26-4,35.6520872,139.6381336,0,○,道路代替地東側
宮坂,26-5,35.6534106,139.6402622,0,○,北沢川緑道
宮坂,26-6,35.653432,139.636028,0,○,経堂児童遊園西側
宮坂,26-7,35.6542863,139.6356944,0,○,個人宅東側
宮坂,26-8,35.653606,139.637964,0,○,北沢川緑道（宮坂三丁目交差点脇）
代沢,27-1,35.6537812,139.6710156,0,○,代沢せせらぎ公園西側
代沢,27-2,35.657501,139.668188,0,○,代沢地区会館東側
代沢,27-3,35.655725,139.669672,0,○,北沢八幡児童遊園南側
代沢,27-4,35.654693,139.668286,0,○,代沢小学校東側
代沢,27-5,35.6538802,139.6717978,0,○,東急バス(株)バス整備工場南側
代沢,27-6,35.654229,139.671561,0,○,代沢せせらぎ公園増設予定地東側
代沢,27-7,35.654843,139.667257,0,○,代沢小学校西側
代沢,27-8,35.6552266,139.667801,0,○,代沢小学校北側
代沢,28-1,35.656734,139.678216,0,○,富士中学校東側
代沢,28-2,35.656824,139.676529,0,○,都営代沢一丁目アパート３号棟西側
代沢,28-3,35.657183,139.678157,0,○,富士中学校北側
代沢,28-4,35.655879,139.676989,0,○,下代田児童遊園南側
代沢,28-5,35.655548,139.676261,0,○,都営代沢一丁目アパート１号棟西側
代沢,28-6,35.659739,139.676652,0,○,京王井の頭線線路沿い（駒場東大前３号踏切東[駒場東大前駅側]
代沢,28-7,35.656472,139.676873,0,○,富士中学校西側（プール前）
代沢,29-1,35.6599044,139.6692198,0,○,自転車歩行者道
代沢,29-2,35.659628,139.673379,0,○,池之上小学校南側
代沢,29-3,35.659187,139.673729,0,○,池之上青少年交流センター東側
代沢,29-4,35.657592,139.674224,0,○,個人宅西側
代沢,29-5,35.658872,139.668761,0,○,自転車歩行者道
代沢,29-6,35.6580599,139.6685197,0,○,代沢草の丘広場西側
代沢,29-7,35.657821,139.673359,0,○,ＮＨＫ池の上寮２号棟南側
代田,30-1,35.659358,139.664285,0,○,下北線路街東側
代田,30-2,35.661615,139.661429,0,○,京王電鉄代田変電所南側
代田,30-3,35.661851,139.663307,0,○,代田五丁目公園北側
代田,30-4,35.6584601,139.6611379,0,○,世田谷代田駅北側
代田,30-5,35.659923,139.664128,0,○,北沢土木公園管理事務所南側
代田,30-6,35.661464,139.665249,0,○,東京醫科大学図書館世田谷分室南側
代田,30-7,35.661658,139.665298,0,○,東京醫科大学図書館世田谷分室北側
代田,31-1,35.661279,139.658218,0,○,個人宅南側
代田,31-2,35.660102,139.6553,0,○,羽根木公園北側
代田,31-3,35.659472,139.656403,0,○,羽根木公園東側
代田,31-4,35.658154,139.658066,0,○,代田小学校西側
代田,31-5,35.657685,139.658814,0,○,代田小学校南側
代田,31-6,35.659496,139.657989,0,○,ひだまり公園西側
代田,31-7,35.656995,139.659691,0,○,代田八幡神社東側
大原,32-1,35.6692683,139.6563181,0,○,和田堀給水所西側
大原,32-2,35.668584,139.655983,0,○,大原緊急資材置場北側
羽根木,32-3,35.668386,139.6576,0,○,羽根木神社西側
羽根木,32-4,35.666867,139.658891,0,○,個人宅東側
羽根木,32-5,35.662741,139.658758,0,○,京王井の頭線線路沿い（新代田駅西側）
羽根木,32-6,35.662717,139.657698,0,○,京王井の頭線線路沿い
大原,32-7,35.6681094,139.6566632,0,○,大原緊急資材置場南側
大原,32-8,35.670509,139.660683,0,○,玉川上水緑道
代田,33-1,35.66313,139.66082,0,○,東京都交通局代田操車場南側
大原,33-2,35.670579,139.661896,0,○,玉川上水緑道（環七通り脇）
大原,33-3,35.667025,139.66442,0,○,下北沢小学校北側
大原,33-4,35.666312,139.66398,0,○,下北沢小学校南側
代田,33-5,35.664612,139.66538,0,○,下北沢成徳高等学校東側
代田,33-6,35.66551,139.662935,0,○,代田北広場北側
大原,33-7,35.671234,139.663116,0,○,玉川上水緑道
代田,33-8,35.665658,139.661717,0,○,守山地区会館北側
北沢,34-1,35.6684093,139.6721268,0,○,北沢中学校第二校舎北側
北沢,34-2,35.670395,139.670576,0,○,玉川上水第二緑道（きたざわ苑西）
北沢,34-3,35.6695866,139.6662457,0,○,北沢五丁目児童遊園南側
北沢,34-4,35.669618,139.667565,0,○,北沢中学校北側
北沢,34-5,35.66841219,139.6721813,0,△,北沢中学校第二校舎南西側
北沢,34-6,35.668469,139.669375,0,○,北沢４－２６遊び場西側
北沢,34-7,35.667723,139.672435,0,○,北沢中学校第二校舎南側
北沢,34-8,35.6689111,139.6671334,0,○,北沢中学校南側
北沢,35-1,35.6642714,139.6710477,0,○,北沢３－９（遊歩道）
北沢,35-2,35.6653879,139.6727229,0,○,小田急線東北沢駅機械棟北側
北沢,35-3,35.6641,139.669757,0,○,旧下北沢臨時置場東側
北沢,35-4,35.664478,139.669892,0,○,区管理地北側
北沢,35-5,35.6642179,139.668725,0,○,どんぐりひろば公園（公園内）
北沢,35-6,35.666954,139.672443,0,○,北沢公園北側
北沢,35-7,35.6603709,139.6761946,0,○,北沢一丁目児童遊園西側
北沢,35-8,35.663112,139.669899,0,○,区管理道路
松原,36-1,35.6584062,139.6509799,0,○,東京電力(株)松原変電所南側
松原,36-2,35.656033,139.649253,0,○,北沢川緑道
松原,36-3,35.6589569,139.652121,0,○,梅丘中学校西側
松原,36-4,35.65816251,139.6511717,0,△,都立光明学園東側
松原,36-5,35.658426,139.653061,0,○,梅丘中学校南側
松原,36-6,35.6592018,139.6530753,0,○,梅丘中学校東側
豪徳寺,36-7,35.65464,139.647332,0,○,北沢川緑道
豪徳寺,36-8,35.6560393,139.6464415,0,○,善性寺北側
豪徳寺,36-9,35.656291,139.6459,0,○,善性寺西側
松原,37-1,35.6635,139.6517032,0,○,駐車場南側
松原,37-2,35.663936,139.651408,0,○,松原小学校南側
松原,37-3,35.663065,139.64883,0,○,松原公園北側
松原,37-4,35.6619493,139.6508043,0,○,個人宅北側
松原,37-5,35.662818,139.65302,0,○,赤羽根公園東側
松原,37-6,35.662681,139.652746,0,○,東洋製罐(株)コーポ松原駐輪場北側
松原,37-7,35.664307,139.650445,0,○,松原小学校西側
松原,38-1,35.6683932,139.6513093,0,○,京王電鉄(株)旧京王井の頭線お忘れ物取扱所北側
松原,38-2,35.66952,139.654983,0,○,京王電鉄(株)旧資材置場南側
松原,38-3,35.6690294,139.6534312,0,○,京王電鉄(株)工事現場北側
松原,38-4,35.668521,139.652558,0,○,扶桑会館西側
松原,38-5,35.6684344,139.651594,0,○,京王電鉄(株)工事現場南側
松原,38-6,35.666391,139.653641,0,○,松原北保
松原,38-7,35.668821,139.651956,0,○,京王線線路沿い（明大前駅東）
松原,38-8,35.6667,139.654206,0,○,松原北保育園南側
松原,39-1,35.6653623,139.6489133,0,○,日本学園北側
松原,39-2,35.6649684,139.6467843,0,○,個人宅西側
松原,39-3,35.666629,139.648403,0,○,二階堂高等学校北側
松原,39-4,35.66597717,139.6479693,0,△,日本女子体育大学附属みどり幼稚園西側
松原,39-5,35.664576,139.648166,0,○,日本学園西側
松原,39-6,35.665054,139.6496212,0,△,日本学園東側
松原,39-7,35.664068,139.647067,0,○,駐車場西側
松原,40-1,35.667281,139.641461,0,○,NTT松沢営業所別館西側
赤堤,40-2,35.665012,139.637631,0,○,消防庁赤堤寮西側
松原,40-3,35.666332,139.644966,0,○,弁天児童遊園東側
松原,40-4,35.666789,139.643002,0,○,下高井戸公共駐車場ひまわり広場東側
赤堤,40-5,35.6647831,139.6389093,0,○,松沢小学校西側
松原,40-6,35.666115,139.643041,0,○,京王線線路沿い（下高井戸駅東側）
赤堤,40-7,35.665148,139.640028,0,○,松沢小学校南側
赤堤,40-8,35.664121,139.636619,0,○,赤堤けやき公園西側
赤堤,41-1,35.663911,139.63947,0,○,松沢小学校第二運動場南側
松原,41-2,35.663138,139.646074,0,○,個人宅南側
松原,41-3,35.663258,139.644779,0,○,個人宅南側
赤堤,41-4,35.660383,139.641434,0,○,赤堤保育園北側
松原,41-5,35.6641681,139.6450619,0,○,個人宅西側
赤堤,41-6,35.6615902,139.6414628,0,○,赤松公園北側
松原,41-7,35.665299,139.646296,0,○,菅原神社北側
赤堤,41-8,35.661134,139.641844,0,○,赤松公園南側
赤堤,42-1,35.658756,139.6439,0,○,三界寺本堂北側
赤堤,42-2,35.659031,139.64625,0,○,日本政策投資銀行赤堤第一舎宅東側
赤堤,42-3,35.65911902,139.6482241,0,△,赤松ぼっくり庭園緑地南側
赤堤,42-4,35.6581309,139.643696,0,○,あかつつみ幼稚園南側
赤堤,42-5,35.658172,139.646746,0,○,個人宅南側
赤堤,42-6,35.659443,139.648474,0,○,赤松ぼっくり庭園緑地東側
赤堤,43-1,35.65638536,139.637559,0,△,赤堤小学校北側
赤堤,43-2,35.653821,139.643089,0,○,北沢川緑道ユリの木公園
赤堤,43-3,35.654922,139.637799,0,○,赤堤生涯学習センター（赤堤小学校内）南側
赤堤,43-4,35.65884594,139.6368267,0,△,西福寺南側
赤堤,43-5,35.659178,139.63953,0,○,カトリック赤堤教会東側
赤堤,43-6,35.656171,139.636531,0,○,赤堤小学校西側
赤堤,43-7,35.659093,139.636445,0,○,西福寺西側
赤堤,43-8,35.655429,139.637826,0,○,赤堤小学校東側
桜上水,44-1,35.661083,139.630786,0,○,緑丘中学校西側
桜上水,44-2,35.658325,139.626103,0,○,㈱ギコウ
桜上水,44-3,35.664,139.631264,0,○,日本大学文理学部陸上競技場北側
桜上水,44-4,35.661988,139.631516,0,○,緑丘中学校北側
桜上水,44-5,35.655824,139.630201,0,○,経堂小学校南側
桜上水,44-6,35.6567521,139.6291786,0,○,個人宅北側
桜上水,44-7,35.660509,139.631644,0,○,緑丘中学校南側
桜上水,44-8,35.655655,139.631586,0,○,経堂小学校東側
桜上水,45-1,35.664337,139.62992,0,○,桜上水しいの木公園東側
桜上水,45-2,35.667925,139.627908,0,○,京王電鉄(株)上北沢変電所北側
桜上水,45-3,35.667341,139.629404,0,○,個人宅西側
桜上水,45-4,35.665626,139.63464,0,○,松沢中学校南側
桜上水,45-5,35.662953,139.633076,0,○,日本大学弓道部南側
桜上水,45-6,35.66417,139.635572,0,○,都立松原高等学校南側
桜上水,45-7,35.6654195,139.6352755,0,○,都立松原高等学校東側
桜上水,45-8,35.6660385,139.6351144,0,○,松沢中学校東側
上北沢,46-1,35.668489,139.628618,0,○,駐車場北側
上北沢,46-2,35.667892,139.626965,0,○,個人宅北側
上北沢,46-3,35.668109,139.621944,0,○,日本政策投資銀行上北沢住宅西側
上北沢,46-4,35.668489,139.625833,0,○,京王線線路沿い（上北沢駅東側）
上北沢,46-5,35.667608,139.62549,0,○,上北沢区民センター東側
上北沢,46-6,35.668564,139.624557,0,○,京王線連続立体交差事業用地東側
上北沢,46-7,35.668867,139.624074,0,○,京王線線路沿い（上北沢駅脇）
上北沢,47-1,35.671176,139.620115,0,○,京王バス(株)永福町営業所世田谷車庫南側
上北沢,47-2,35.67095517,139.6165768,0,○,区立八幡山北自転車等駐車場西側
上北沢,47-3,35.673963,139.617787,0,○,上北沢やのかみ広場北側
上北沢,47-4,35.67251,139.617763,0,○,上北沢五丁目公園南側
上北沢,47-5,35.669516,139.621817,0,○,上北沢小学校南側
上北沢,47-6,35.670841,139.621149,0,○,個人宅北側
上北沢,47-7,35.670133,139.620352,0,○,上北沢小学校北側
上北沢,47-8,35.669355,139.620363,0,○,上北沢保育園南側
八幡山,48-1,35.668366,139.61456,0,○,都営八幡山アパート南側
上北沢,48-2,35.669526,139.61676,0,○,都立中部総合精神保健福祉センタ－北側
上北沢,48-3,35.665307,139.61912,0,○,松沢けやき広場
上北沢,48-4,35.667078,139.621467,0,○,都立松沢病院東側
八幡山,48-5,35.668484,139.61665,0,○,八幡山こぶし広場北側
八幡山,48-6,35.664736,139.616652,0,○,八幡山三丁目公園北側
八幡山,48-7,35.663572,139.61583,0,○,個人宅南側
八幡山,49-1,35.661402,139.621475,0,○,八幡山はなもも広場西側
八幡山,49-2,35.66316,139.619473,0,○,八幡山公園東側
上北沢,49-3,35.6615035,139.6246759,0,○,上北沢一丁目公園南側
八幡山,49-4,35.6621207,139.6213097,0,○,八幡山小学校西側
上北沢,49-5,35.663591,139.624255,0,○,松沢保育園南側
八幡山,49-6,35.659726,139.614931,0,○,東京都動物愛護相談センター西側
八幡山,49-7,35.66048,139.620648,0,○,山下こども公園西側
八幡山,49-8,35.66041,139.623493,0,○,希望丘東公園北側
船橋,50-1,35.656214,139.618906,0,○,船橋希望中学校北側
船橋,50-2,35.655831,139.622773,0,○,希望丘小学校東側
船橋,50-3,35.6581721,139.6185949,0,○,UR都市機構希望ヶ丘団地西側
船橋,50-4,35.657341,139.619585,0,○,UR都市機構希望ヶ丘団地南側
船橋,50-5,35.656666,139.6219544,0,○,希望丘小学校北側
船橋,50-6,35.6557323,139.6197426,0,○,船橋希望中学校東側
船橋,50-7,35.655022,139.622822,0,○,世田谷船橋郵便局東側
船橋,50-8,35.6575811,139.6228698,0,○,葭根公園南側
船橋,51-1,35.6524264,139.6236373,0,○,都立千歳丘高等学校西側
船橋,51-2,35.656009,139.629138,0,○,世田谷船橋郵政社宅北側
船橋,51-3,35.648866,139.623341,0,○,個人宅東側
船橋,51-4,35.654551,139.627384,0,○,区立船橋東保育園南側
船橋,51-5,35.655071,139.625309,0,○,西経堂児童遊園入口側
船橋,51-6,35.651667,139.624867,0,○,都立千歳丘高等学校南側
船橋,51-7,35.6490808,139.6250326,0,○,船橋一丁目広場東側
船橋,51-8,35.652409,139.626101,0,○,烏山川緑道（西経堂第二児童遊園脇）
船橋,52-1,35.652546,139.61684,0,○,船橋小学校南側
船橋,52-2,35.650607,139.619411,0,○,有隣病院駐車場東側
船橋,52-3,35.65856764,139.6161196,0,△,大東学園高等学校北側
船橋,52-4,35.659304,139.616775,0,○,千歳温水プール北側
船橋,52-5,35.652563,139.61751,0,○,船橋小学校東側
船橋,52-6,35.656983,139.615508,0,○,希望ヶ丘スイミングクラブ駐車場南側
船橋,52-7,35.651046,139.619601,0,○,畑地西側
船橋,52-8,35.658436,139.617103,0,○,希望丘公園南側
粕谷,53-1,35.66291,139.611904,0,○,粕谷八幡神社北側
千歳台,53-2,35.658482,139.613126,0,○,千歳台小学校西側
粕谷,53-3,35.659051,139.611329,0,○,東京ガス世田谷整圧所南側
千歳台,53-4,35.659216,139.613512,0,○,千歳台小学校北側
千歳台,53-5,35.6543,139.614309,0,○,希望丘記念公園南側
千歳台,53-6,35.653755,139.612863,0,○,畑東側
千歳台,53-7,35.651871,139.614186,0,○,希望丘南公園南側
千歳台,53-8,35.656036,139.614229,0,○,希望丘中公園南側
千歳台,54-1,35.656048,139.607256,0,○,塚戸小学校南側
祖師谷,54-2,35.655368,139.607653,0,○,塚戸公園南側
千歳台,54-3,35.6583023,139.6066432,0,○,千歳中学校東側
千歳台,54-4,35.656994,139.605088,0,○,千歳台三角公園南側
千歳台,54-5,35.658614,139.60649,0,○,千歳中学校北側
千歳台,54-6,35.658422,139.603913,0,○,廻沢西公園北側
粕谷,54-7,35.659096,139.606431,0,○,都立芦花高等学校東側
祖師谷,54-8,35.657649,139.603628,0,○,祖師谷六丁目広場東側
千歳台,55-1,35.6520766,139.612318,0,○,個人宅北側
千歳台,55-2,35.649734,139.613252,0,○,廻沢南公園北側
祖師谷,55-3,35.649414,139.610572,0,○,公社祖師谷住宅１４号棟北側
祖師谷,55-4,35.649327,139.609049,0,○,公社祖師谷住宅空き地北側（１１号棟北）
祖師谷,55-5,35.6493205,139.6083754,0,○,祖師谷駐車場西側
祖師谷,55-6,35.6481354,139.6096737,0,○,祖師谷住宅中央公園南側
祖師谷,55-7,35.647321,139.610863,0,○,個人宅西側
千歳台,56-1,35.6452844,139.6160932,0,○,小田急線高架下小田急クローゼット祖師ヶ谷大蔵北側
祖師谷,56-2,35.648099,139.612364,0,○,祖師谷わかば保育園西側
千歳台,56-3,35.6466901,139.6168687,0,○,笠森公園南側
千歳台,56-4,35.646023,139.615954,0,○,笠森公園西側
祖師谷,56-5,35.64567,139.608828,0,○,個人宅北側
祖師谷,56-6,35.647153,139.612669,0,○,公社管理空き地南側（３０号棟前）
祖師谷,56-7,35.6435696,139.6103698,0,○,オダクル祖師ヶ谷大蔵第一駐輪場北側
千歳台,56-8,35.6486963,139.6150978,0,○,千歳台一丁目広場西側
祖師谷,57-1,35.653919,139.608691,0,○,個人宅東側
祖師谷,57-2,35.649252,139.602761,0,○,仙川（大石橋脇）
祖師谷,57-3,35.64608,139.60346,0,○,成城学園初等学校北側
祖師谷,57-4,35.644796,139.603798,0,○,成城学園初等学校東側
祖師谷,57-5,35.648255,139.607312,0,○,祖師谷四丁目広場東側
祖師谷,57-6,35.644912,139.60482,0,○,祖師谷小学校南側
祖師谷,57-7,35.646198,139.601939,0,○,仙川（稲荷山橋脇）
祖師谷,57-8,35.649941,139.606087,0,○,祖師谷ぞうさん広場北側
成城,58-1,35.638573,139.59994,0,○,カトリック成城教会東側
成城,58-2,35.636989,139.596631,0,○,萬世興業成城社宅東側
成城,58-3,35.63524,139.601817,0,○,NTT砧ビル北側
成城,58-4,35.635743,139.598721,0,○,明正小学校北側
成城,58-5,35.6342406,139.5976677,0,○,成城駐車場北側
成城,58-6,35.634982,139.599685,0,○,明正小学校東側
成城,58-7,35.6337401,139.5977745,0,○,成城排水調整所南側
成城,58-8,35.6318944,139.6031679,0,○,成城一丁目公園南側
成城,59-1,35.641875,139.589121,0,○,野川（神明橋脇）
祖師谷,59-2,35.641439,139.602118,0,△,砧土木管理事務所水防施設西側
成城,59-3,35.645049,139.600019,0,○,成城学園高等学校西側
成城,59-4,35.639663,139.591691,0,○,成城みつ池緑地保全地区西側
成城,59-5,35.641453,139.598901,0,○,成城北第二自転車等駐車場西側
成城,59-6,35.643904,139.589163,0,○,成城四丁目緑地西側
成城,59-7,35.640898,139.600429,0,○,成城六丁目事務所棟西側
祖師谷,59-8,35.642483,139.602535,0,○,祖師谷三丁目公園東側
成城,60-1,35.651701,139.601078,0,○,仙川（鞍橋南）
上祖師谷,60-2,35.653853,139.594196,0,○,上祖師谷四丁目公園南側
上祖師谷,60-3,35.654124,139.601938,0,○,上祖師谷パンダ公園西側
成城,60-4,35.652068,139.596388,0,○,都立総合工科高等学校東側
成城,60-5,35.6518,139.597797,0,○,千歳小学校北側
成城,60-6,35.647863,139.593519,0,○,都営成城アパートポンプ室西側
成城,60-7,35.647414,139.601256,0,○,成城学園第二グランド東側
上祖師谷,60-8,35.652802,139.599078,0,○,都立祖師谷公園南側
成城,60-9,35.648799,139.593547,0,○,都営成城アパート集会室北側
上祖師谷,61-1,35.664189,139.597372,0,○,駐車場東側
上祖師谷,61-2,35.66207,139.598057,0,○,上祖師谷二丁目ファミリー農園南側
上祖師谷,61-3,35.660167,139.592646,0,○,上祖師谷中学校西側
上祖師谷,61-4,35.659984,139.593175,0,○,上祖師谷中学校南側
上祖師谷,61-5,35.658884,139.598143,0,○,仙川（祖師谷中橋脇）
上祖師谷,61-6,35.659616,139.591951,0,○,畑東側
上祖師谷,61-7,35.657565,139.595254,0,○,畑南側
上祖師谷,61-8,35.656976,139.593267,0,○,上祖師谷五丁目公園南側
南烏山,62-1,35.668264,139.596337,0,○,成城消防署烏山出張所東側
南烏山,62-2,35.668479,139.600498,0,○,烏山区民センター前広場西側
南烏山,62-3,35.668222,139.597665,0,○,コーシャハイム千歳烏山１号棟東側
南烏山,62-4,35.66737,139.599444,0,○,京王線線路沿い（千歳烏山駅西）
南烏山,62-5,35.667388,139.601416,0,○,烏山中央自転車等駐車場東側
南烏山,62-6,35.666017,139.602479,0,○,千歳烏山南公園南側
南烏山,62-7,35.66751,139.599142,0,○,京王線線路沿い（千歳烏山駅西）
上祖師谷,62-8,35.663966,139.599194,0,○,上祖師谷広場東側
粕谷,63-1,35.662942,139.604941,0,○,水際の散歩道（粕谷区民センター脇）
粕谷,63-2,35.663788,139.604072,0,○,個人宅南側
上祖師谷,63-3,35.663113,139.601997,0,○,東台広場東側
上祖師谷,63-4,35.663189,139.600777,0,○,上祖師谷一丁目公園北側
上祖師谷,63-5,35.660844,139.601916,0,○,養鶏場北側
粕谷,63-6,35.662398,139.605381,0,○,水際の散歩道
粕谷,63-7,35.664257,139.605696,0,○,烏山土木公園管理事務所北西側
南烏山,64-1,35.669498,139.61138,0,○,個人宅北側
南烏山,64-2,35.665246,139.607859,0,○,駐車場東側
南烏山,64-3,35.668164,139.605798,0,○,南烏山ふれあいの家南側
粕谷,64-4,35.666798,139.61042,0,○,烏山ふれあい散歩道（芦花中学校北側）
南烏山,64-5,35.667836,139.612523,0,○,南烏山なんてん公園東側
粕谷,64-6,35.666398,139.612641,0,○,烏山ふれあい散歩道（南烏山１－１遊び場脇）
粕谷,64-7,35.665386,139.610082,0,○,芦花中学校南側
南烏山,64-8,35.666027,139.607276,0,○,コーシャハイム芦花公園４号棟南側
粕谷,64-9,35.665495,139.611992,0,○,都営粕谷二丁目アパート西側
南烏山,65-1,35.671446,139.598547,0,○,南烏山六丁目広場北側
南烏山,65-2,35.671941,139.601675,0,○,烏山中学校東側
南烏山,65-3,35.671888,139.600207,0,○,烏山中学校西側
南烏山,65-4,35.6709301,139.5985465,0,○,都営南烏山六丁目アパート２号棟南側
南烏山,65-5,35.670371,139.605931,0,○,公社南烏山三丁目住宅西側水路
南烏山,65-6,35.6710825,139.6027833,0,○,区立南烏山りんれい広場西側
南烏山,65-7,35.66836,139.601414,0,○,京王線線路沿い（千歳烏山駅東）
南烏山,65-8,35.671751,139.608659,0,○,烏山下宿広場南側
上北沢,66-1,35.675178,139.612286,0,○,都営上北沢五丁目第３アパート２号棟西側
北烏山,66-2,35.680865,139.600535,0,○,公社烏山北住宅２号棟西側
北烏山,66-3,35.6800379,139.5983757,0,○,北烏山二丁目公園西側
北烏山,66-4,35.678156,139.604366,0,○,個人宅西側
北烏山,66-5,35.677326,139.602041,0,○,烏山北保育園東側
北烏山,66-6,35.675859,139.604903,0,○,北烏山一丁目広場北側
北烏山,66-7,35.675864,139.602905,0,○,公社烏山北住宅１９号棟前公園南側
北烏山,66-8,35.6750102,139.6056674,0,○,烏山公園東側
北烏山,67-1,35.679664,139.594589,0,○,専光寺西側
北烏山,67-2,35.673047,139.59932,0,○,烏山北小学校西側
北烏山,67-3,35.676557,139.600375,0,○,個人宅西側
北烏山,67-4,35.67275,139.600931,0,○,北烏山三丁目公園南側
北烏山,67-5,35.674024,139.600024,0,○,烏山北小学校東側
北烏山,67-6,35.672988,139.603759,0,○,公社烏山松葉通住宅１０号棟南側
北烏山,67-7,35.6762,139.597709,0,○,カクヤス城西センター北側
北烏山,67-8,35.672535,139.597058,0,○,西之谷公園北側
北烏山,68-1,35.675234,139.589577,0,○,区営北烏山八丁目アパート南側
北烏山,68-2,35.67952,139.593003,0,○,妙壽寺西側
北烏山,68-3,35.677459,139.589932,0,○,日本女子体育大学北側
北烏山,68-4,35.676473,139.591774,0,○,北烏山ファミリー農園東側
北烏山,68-5,35.676085,139.589915,0,○,日本女子体育大学陸上競技場南側
北烏山,68-6,35.680594,139.593885,0,○,日本女子体育大学運動場東側
北烏山,68-7,35.676446,139.5879952,0,○,日本女子体育大学西側
北烏山,68-8,35.676548,139.597696,0,○,寺町通り区民集会所南側
北烏山,69-1,35.67266,139.592115,0,○,UR都市機構シティハイツ烏山東側
給田,69-2,35.672223,139.588485,0,○,給田五丁目公園東側
北烏山,69-3,35.672613,139.593803,0,○,北烏山九丁目公園東側
給田,69-4,35.670717,139.59302,0,○,給田小学校南側
北烏山,69-5,35.673779,139.592966,0,○,(株)INPEX技術研究所北側
北烏山,69-6,35.673732,139.591664,0,○,北烏山えのき公園東側
給田,69-7,35.670626,139.589158,0,○,公社給田西住宅駐車場南側
給田,69-8,35.668396,139.591858,0,○,給田放置自転車等保管所東側
給田,70-1,35.667151,139.593546,0,○,ヒロハウス西側
給田,70-2,35.663562,139.593551,0,○,烏山小学校東側
給田,70-3,35.66531,139.595576,0,○,佼成学園女子高校西側
給田,70-4,35.66491,139.592905,0,○,給田保育園南側
給田,70-5,35.662791,139.588254,0,○,真光寺北側
給田,70-6,35.663308,139.592034,0,○,烏山小学校西側
給田,70-7,35.662651,139.591973,0,○,六所神社西側
給田,70-8,35.664005,139.595197,0,○,佼成学園幼稚園東側
砧,71-1,35.644062,139.614107,0,○,山野小学校第二校庭北側
砧,71-2,35.643802,139.615426,0,○,富士見公園東側
砧,71-3,35.642356,139.611742,0,○,西山野公園南側
砧,71-4,35.643135,139.6161,0,○,東京都水道局大蔵給水所北側
砧,71-5,35.643538,139.613673,0,○,山野小学校北側
砧,71-6,35.642651,139.613243,0,○,山野小学校東側
砧,71-7,35.640673,139.612005,0,○,草山公園西側
砧,71-8,35.638845,139.614105,0,○,観音公園東側
砧,72-1,35.634418,139.609299,0,○,日本大学商学部南側
砧,72-2,35.638535,139.603851,0,○,仙川（打越橋脇）
砧,72-3,35.638,139.60536,0,○,ゆかり文化幼稚園西側
砧,72-4,35.638534,139.606659,0,○,砧七丁目広場東側
砧,72-5,35.637954,139.610201,0,○,砧五丁目ファミリー農園南側
砧,72-6,35.637128,139.607685,0,○,個人宅西側
砧,72-7,35.634012,139.605743,0,○,仙川（石井戸橋脇）
砧,72-8,35.639151,139.610002,0,○,砧五丁目北公園南側
砧,73-1,35.6372261,139.6148973,0,○,都営砧一丁目アパート２号棟西側
大蔵,73-2,35.631847,139.613461,0,○,国立成育医療研究センター南側
砧,73-3,35.63744,139.612243,0,○,砧郵政宿舎西側
砧,73-4,35.640166,139.61857,0,○,砧一丁目広場北側
大蔵,73-5,35.635105,139.617296,0,○,駐車場北側
大蔵,73-6,35.635024,139.615267,0,○,個人宅北側
大蔵,73-7,35.632622,139.615265,0,○,サレジアン国際学園世田谷中学高等学校南側
大蔵,73-8,35.633873,139.621676,0,○,世田谷市場駐輪場東側
大蔵,74-1,35.6278537,139.610637,0,○,仙川（清水橋東）
大蔵,74-2,35.62891,139.6108556,0,○,大蔵運動公園南西側
大蔵,74-3,35.6322196,139.6081983,0,○,仙川（上谷戸橋脇）
大蔵,74-4,35.628008,139.606769,0,○,田直公園北側
大蔵,74-5,35.628933,139.609145,0,○,仙川（石井戸公園向かい）
大蔵,74-6,35.629903,139.608048,0,○,個人宅西側
大蔵,74-7,35.629743,139.614773,0,○,大蔵運動公園東側
岡本,75-1,35.6277658,139.6164619,0,○,谷戸川（庚申橋脇）
岡本,75-2,35.6239121,139.6191946,0,○,谷戸川（七之橋脇）
岡本,75-3,35.6194249,139.6197678,0,○,都立世田谷総合高等学校東側
岡本,75-4,35.624739,139.614198,0,○,玉川幼稚園西側
岡本,75-5,35.624931,139.619414,0,○,岡本地区会館南側
岡本,75-6,35.62356,139.617291,0,○,岡本福祉作業ホ－ム東側
岡本,75-7,35.62053,139.617748,0,○,都立世田谷総合高等学校西側
岡本,75-8,35.626004,139.619501,0,○,谷戸川（世田谷岡本郵便局前）
宇奈根,76-1,35.620509,139.60013,0,○,宇奈根龍王公園南側
鎌田,76-2,35.622606,139.61179,0,○,砧南小学校西側
宇奈根,76-3,35.6235,139.602685,0,○,宇奈根地区会館東側
鎌田,76-4,35.622026,139.613547,0,○,砧南中学校北側
宇奈根,76-5,35.619534,139.606598,0,○,駒澤大学玉川校舎西側
鎌田,76-6,35.617421,139.613271,0,○,砧下浄水所用地北側
鎌田,76-7,35.621659,139.610158,0,○,野川（天神森橋脇）
鎌田,76-8,35.617001,139.617467,0,○,鎌田１－６遊び場南側
大蔵,76-9,35.6261799,139.6119788,0,○,仙川（氷川橋脇）
喜多見,77-1,35.626262,139.60147,0,○,喜多見小学校北側
喜多見,77-2,35.631787,139.6058228,0,○,砧小学校北側
喜多見,77-3,35.62328,139.595636,0,○,喜多見まえこうち緑道
喜多見,77-4,35.6284048,139.5980172,0,○,喜多見５－２１遊び場（竹山緑地西側）
喜多見,77-5,35.625594,139.600813,0,○,喜多見小学校西側
喜多見,77-6,35.628755,139.60102,0,○,喜多見複合施設南側
喜多見,77-7,35.622844,139.598326,0,○,喜多見１－４遊び場北側
喜多見,77-8,35.629365,139.603188,0,○,次大夫堀公園（水道橋脇）北側
喜多見,78-1,35.629612,139.593403,0,○,みやっぱら公園北側
喜多見,78-2,35.633186,139.596691,0,○,野川（雁追橋脇）
喜多見,78-3,35.6310667,139.5986547,0,○,次大夫掘公園西側
喜多見,78-4,35.6233638,139.5911801,0,○,砧浄水場西側
喜多見,78-5,35.6254946,139.5936961,0,○,喜多見中学校南側
喜多見,78-6,35.624005,139.595359,0,○,喜多見公園東側
喜多見,78-7,35.63389,139.592611,0,○,滝下橋緑道
喜多見,78-8,35.624933,139.5954679,0,○,喜多見公園北側
喜多見,79-1,35.635411,139.593059,0,○,野川（中之橋脇）
喜多見,79-2,35.641514,139.587564,0,○,きたみふれあい広場西口前
喜多見,79-3,35.63859,139.58933,0,○,小田急電鉄(株)喜多見総合事務所西側
喜多見,79-4,35.637305,139.588171,0,○,カトリック礼拝会南側
喜多見,79-5,35.637237,139.589802,0,○,オダクル喜多見第１南側
喜多見,79-6,35.637985,139.591336,0,○,野川（きたみふれあい広場脇）
喜多見,79-7,35.6418057,139.587037,0,○,きたみふれあい広場
下馬,80-1,35.6409508,139.6756123,0,○,都営下馬二丁目アパート２号棟西側
下馬,80-2,35.642426,139.6775,0,○,こどものひろば公園北側
下馬,80-3,35.6430062,139.6775522,0,○,都営下馬アパート９号棟東側
下馬,80-4,35.64156174,139.6757712,0,○,都立青鳥特別支援学校南西側
下馬,80-5,35.641567,139.677247,0,○,こどものひろば公園南側
下馬,80-6,35.642814,139.679393,0,○,こどものひろば公園東側
下馬,80-7,35.642352,139.678912,0,○,こどものひろば公園南側（下馬防災倉庫前）
下馬,81-1,35.6399446,139.6803402,0,○,駒繋小学校西側
下馬,81-2,35.637873,139.684106,0,○,蛇崩川緑道
下馬,81-3,35.6404695,139.680744,0,○,駒繋小学校北側
下馬,81-4,35.63829,139.683472,0,○,東急バス(株)下馬営業所西側
下馬,81-5,35.6397904,139.67801,0,○,西澄寺北側
下馬,81-6,35.6395076,139.6810533,0,○,駒繋小学校南側
下馬,81-7,35.639562,139.678683,0,○,西澄寺東側
下馬,81-8,35.640144,139.681174,0,○,駒繋小学校東側
下馬,82-1,35.637443,139.681279,0,○,駒繋公園南側
下馬,82-2,35.637603,139.679221,0,○,駒留中学校東側
下馬,82-3,35.637172,139.677042,0,○,駒留中学校西側
下馬,82-4,35.634852,139.675787,0,○,東京学芸大学附属高校西側
下馬,82-5,35.634883,139.678855,0,○,東京学芸大学附属高校北側
下馬,82-6,35.634132,139.678813,0,○,東京学芸大学附属高校東側
下馬,82-7,35.632935,139.679544,0,○,下馬公園西側
下馬,82-8,35.632956,139.677602,0,○,下馬中央公園南側
野沢,83-1,35.6322142,139.6732316,0,○,中丸小学校東側
野沢,83-2,35.6325455,139.6734998,0,○,中丸小学校北側
野沢,83-3,35.6317,139.675441,0,○,野沢公園西側
野沢,83-4,35.6314714,139.6705286,0,○,龍雲寺駐車場北側
野沢,83-5,35.63087,139.672557,0,○,(株)野沢園南側
野沢,83-6,35.628297,139.676561,0,○,南原公園東側
野沢,83-7,35.632042,139.672764,0,○,中丸小学校南側
野沢,83-8,35.632186,139.675972,0,○,野沢公園北側
上馬,84-1,35.638602,139.667469,0,○,墓地西側
野沢,84-2,35.6330544,139.6706714,0,○,鶴ケ久保公園南側
野沢,84-3,35.634779,139.668905,0,○,龍雲寺墓地西側
上馬,84-4,35.636872,139.668473,0,○,上馬公園南側
野沢,84-5,35.634674,139.670495,0,○,旭小学校東側
野沢,84-6,35.634654,139.669768,0,○,旭小学校南側
野沢,84-7,35.634599,139.671135,0,○,野沢地区会館南側
野沢,84-8,35.6332713,139.6708149,0,○,鶴ケ久保公園北側
野沢,84-9,35.63392,139.667668,0,○,野沢二丁目公園南側
上馬,85-1,35.63839243,139.6665467,0,○,中里地区会館東側
上馬,85-2,35.639366,139.667278,0,○,上馬二丁目公園西側
上馬,85-3,35.639102,139.665338,0,○,衆議院上馬寮南側
上馬,85-4,35.639301,139.6648139,0,○,上馬北公園西側
上馬,85-5,35.638884,139.666943,0,○,中里地区会館北側
上馬,85-6,35.637907,139.665082,0,○,上馬塩田緑地東側
上馬,85-7,35.639486,139.665597,0,○,衆議院上馬寮東側
野沢,86-1,35.63186798,139.667156,0,○,共同住宅建設現場仮囲い南側
上馬,86-2,35.63539,139.66256,0,○,(学)東育学院コドモの園幼稚園南側
上馬,86-3,35.6363512,139.6623344,0,○,児童養護施設東京育成園北側
野沢,86-4,35.63236896,139.6685616,0,○,野沢４丁目８番植栽東側
上馬,86-5,35.63466355,139.6626401,0,○,上馬マンション北側
野沢,86-6,35.630104,139.671513,0,○,野沢四丁目東整圧器室北側
野沢,86-7,35.6319641,139.6681466,0,○,東京電力(株)駒沢変電所西側
野沢,86-8,35.633316,139.665175,0,○,野沢児童遊園西側
駒沢,87-1,35.635635,139.655927,0,○,駒沢中学校西側
上馬,87-2,35.637623,139.658722,0,○,東海輸送駐車場西側
上馬,87-3,35.638345,139.659802,0,○,区営上馬四丁目アパート２号棟東側
上馬,87-4,35.640043,139.660814,0,○,駒留公園南側
駒沢,87-5,35.636457,139.656391,0,○,駒沢中学校東側
駒沢,87-6,35.6367227,139.6557149,0,○,駒沢中学校北側
上馬,87-7,35.640532,139.655763,0,○,上馬五丁目郵政宿舎西側
上馬,87-8,35.638044,139.656592,0,○,小泉公園北側
駒沢,88-1,35.632917,139.657244,0,○,駒沢小学校北側
駒沢,88-2,35.63044,139.657324,0,○,駒沢一丁目西公園北側
駒沢,88-3,35.631225,139.659239,0,○,松之木都市林南側
駒沢,88-4,35.629314,139.659698,0,○,駒澤大学東側
駒沢,88-5,35.629391,139.656706,0,○,三菱重工駒沢社宅西側
駒沢,88-6,35.632262,139.652405,0,○,駒沢はらっぱプレーパーク西側
駒沢,88-7,35.632294,139.652931,0,○,駒沢緑泉公園西側
駒沢,88-8,35.63244,139.657996,0,○,駒沢小学校南側
新町,89-1,35.632508,139.649685,0,○,旧昭和オプトロニクス(株)南側
新町,89-2,35.632667,139.6491722,0,○,旧昭和オプトロニクス（株）西側
新町,89-3,35.6309224,139.6472217,0,○,新町２－２５遊び場東側
新町,89-4,35.6287622,139.6485893,0,○,個人タクシー事業団協同組合南側
新町,89-5,35.629347,139.647806,0,○,新町南公園西側
新町,89-6,35.6303566,139.6475257,0,○,都営新町二丁目アパート３号棟東側
新町,89-7,35.6303566,139.6468925,0,○,新町２－２５遊び場南側
桜新町,90-1,35.628026,139.645248,0,○,桜新町さくらっ子公園西側
桜新町,90-2,35.632562,139.640403,0,○,個人宅南側
桜新町,90-3,35.632906,139.644769,0,○,世田谷新町公園南側
桜新町,90-4,35.627735,139.643642,0,○,桜新町一丁目緑地北側
桜新町,90-5,35.6300898,139.6418825,0,○,駐車場東側
桜新町,90-6,35.628302,139.644167,0,○,桜新町区民集会所東側
桜新町,90-7,35.632754,139.6440866,0,○,桜新町放置自転車等保管所南側
桜新町,90-8,35.6330312,139.6437025,0,○,桜新町放置自転車等保管所西側
深沢,91-1,35.6245964,139.6546811,0,○,駒澤大学深沢校舎南側
新町,91-2,35.626409,139.649095,0,○,深沢中学校東側
深沢,91-3,35.625131,139.653856,0,○,駒澤大学深沢校舎西側
新町,91-4,35.62596,139.648385,0,○,深沢中学校南側
深沢,91-5,35.623725,139.6488487,0,○,都立深沢高等学校東側
深沢,91-6,35.6215448,139.6528898,0,○,醫王寺南側
深沢,91-7,35.621183,139.651026,0,○,日本体育大学南側
駒沢公園,92-1,35.625139,139.656453,0,○,都立駒沢オリンピック公園硬式野球場西側
駒沢,92-2,35.626603,139.655973,0,○,個人宅西側
新町,92-3,35.627366,139.651504,0,○,深沢小学校西側
新町,92-4,35.626926,139.65056,0,○,深沢広場北側
駒沢,92-5,35.626848,139.652819,0,○,駒沢４－３３遊び場西側
新町,92-6,35.6285202,139.6519198,0,○,新町一丁目公園西側
駒沢公園,92-7,35.623314,139.659969,0,○,都立駒沢オリンピック公園弓道場南側
新町,92-8,35.6277491,139.6519653,0,○,深沢小学校北側
深沢,93-1,35.617664,139.658988,0,○,東深沢小学校南側
深沢,93-2,35.620856,139.659879,0,○,東京学芸大学附属世田谷中学校東側
深沢,93-3,35.618859,139.660547,0,○,個人宅南側
深沢,93-4,35.619212,139.656637,0,○,東京学芸大学附属世田谷小学校西側
深沢,93-5,35.619042,139.653327,0,○,東深沢中学校西側
深沢,93-6,35.618214,139.658155,0,○,東深沢小学校北側
深沢,93-7,35.61868173,139.6575258,0,○,東京学芸大学附属世田谷小学校南側
深沢,93-8,35.616319,139.658141,0,○,深沢公園東側
深沢,93-9,35.620665,139.657932,0,○,東京学芸大学附属世田谷中学校西側
用賀,94-1,35.6246246,139.6422448,0,○,桜町小学校北側
用賀,94-2,35.623019,139.637578,0,○,谷沢川（宇佐前橋脇）
中町,94-3,35.6232136,139.6431759,0,○,日体幼稚園北側
用賀,94-4,35.62279,139.636154,0,○,個人宅北側
用賀,94-5,35.62457853,139.6428426,0,○,桜町小学校東側
深沢,94-6,35.624761,139.646441,0,○,深沢の杜緑地東側
用賀,94-7,35.623785,139.642375,0,○,桜町小学校南側
用賀,94-8,35.622169,139.6382599,0,○,谷沢川（栄橋脇）
用賀,95-1,35.629375,139.631413,0,○,京西小学校第二校庭南側
用賀,95-2,35.6260497,139.6317054,0,○,用賀高架下広場北側
用賀,95-3,35.62872,139.631121,0,○,京西小学校西側
用賀,95-4,35.6252485,139.6391577,0,○,用賀二丁目広場南側
用賀,95-5,35.626809,139.630194,0,○,エコプラザ用賀南側
用賀,95-6,35.627199,139.639307,0,○,都立桜町高等学校北側
用賀,95-7,35.627078,139.631978,0,○,用賀くすのき公園南側
用賀,95-8,35.625759,139.638111,0,○,用賀二丁目北広場南側
用賀,95-9,35.626539,139.640838,0,○,都立桜町高等学校東側
上用賀,96-1,35.629758,139.627956,0,○,用賀中学校南側
上用賀,96-2,35.634161,139.6341,0,○,都営上用賀一丁目アパート１号棟西側
上用賀,96-3,35.633732,139.634563,0,○,上用賀第二広場東側
上用賀,96-4,35.63343,139.628891,0,○,上用賀３丁目１９番西側
上用賀,96-5,35.631351,139.629655,0,○,上用賀３－８遊び場南側
上用賀,96-6,35.6317171,139.6251888,0,○,上用賀放置自転車等保管所西側
上用賀,96-7,35.629622,139.626736,0,○,用賀中学校西側
上用賀,96-8,35.630694,139.627197,0,○,用賀中学校北側
上用賀,97-1,35.637954,139.626534,0,○,関東中央病院東側
上用賀,97-2,35.637771,139.624949,0,○,関東中央病院西側
上用賀,97-3,35.6380697,139.6305286,0,○,馬事公苑西側
上用賀,97-4,35.63625,139.631051,0,○,上用賀四丁目管理地
上用賀,97-5,35.63622,139.62702,0,○,用賀小学校東側
上用賀,97-6,35.638281,139.628224,0,○,上用賀公園西側
上用賀,97-7,35.634956,139.627274,0,○,用賀公園南側
上用賀,97-8,35.635397,139.626485,0,○,用賀小学校南側
瀬田,98-1,35.625549,139.623345,0,○,フラワーランド（瀬田農業公園）南側
玉川台,98-2,35.625571,139.629073,0,○,玉川台二丁目五郎様の森緑地北側
瀬田,98-3,35.625017,139.625184,0,○,駐車場北側
玉川台,98-4,35.625425,139.629511,0,○,玉川台二丁目五郎様の森緑地東側
玉川台,98-5,35.624937,139.628889,0,○,玉川台二丁目五郎様の森緑地西側
玉川台,98-6,35.623533,139.630944,0,○,玉川台中広場南側
玉川台,98-7,35.623078,139.633739,0,○,個人宅南側
玉川台,98-8,35.6253117,139.6306362,0,○,玉川台二丁目公園西側
瀬田,99-1,35.6219466,139.6270179,0,○,かさ守稲荷神社東側
瀬田,99-2,35.621332,139.636044,0,○,東京電力(株)用賀変電所西側
瀬田,99-3,35.617584,139.633671,0,○,瀬田中学校東側
瀬田,99-4,35.618557,139.633091,0,○,瀬田中学校北側
瀬田,99-5,35.617903,139.631635,0,○,瀬田小学校南側
瀬田,99-6,35.615128,139.63203,0,○,セント・メリーズインターナショナル・スクール西側
瀬田,99-7,35.622,139.623296,0,○,瀬田四丁目旧小坂緑地東側
瀬田,99-8,35.617698,139.632443,0,○,瀬田中学校南側
玉川,100-1,35.6158074,139.6265158,0,○,二子玉川小学校東側
玉川,100-2,35.616982,139.622616,0,○,砧線跡地歩行者自転車道
玉川,100-3,35.619877,139.62319,0,○,丸子川（区立瀬田四丁目南緑地付近）
玉川,100-4,35.616718,139.626718,0,○,二子玉川小学校北側
玉川,100-5,35.6179567,139.6267557,0,○,丸子川（治大夫橋東）
玉川,100-6,35.61771,139.624383,0,○,玉川保育園東側
玉川,100-7,35.614825,139.624288,0,○,谷川緑道
玉川,100-8,35.6150472,139.6270057,0,○,はなみずき広場西側
上野毛,101-1,35.61380568,139.6369101,0,○,多摩美術大学南側
上野毛,101-2,35.6103469,139.6351163,0,○,丸子川（稲荷橋脇）
玉川,101-3,35.613199,139.630769,0,○,丸子川
玉川,101-4,35.6104212,139.6337243,0,○,旧都立玉川高等学校プール北側
玉川,101-5,35.610399,139.628295,0,○,玉川福祉作業所東側
玉川,101-6,35.60892901,139.6334753,0,○,旧都立玉川高等学校西側
玉川,101-7,35.6114531,139.6306989,0,○,玉川税務署南側
玉川,101-8,35.6142189,139.6286885,0,○,東京都市大学二子幼稚園北側
中町,102-1,35.61990917,139.6423625,0,○,玉川中町公園南側
上野毛,102-2,35.6191363,139.6388356,0,○,上野毛四丁目緑地南側
中町,102-3,35.616862,139.643981,0,○,玉川中学校東側
中町,102-4,35.6171193,139.6421629,0,○,中町小学校西側
中町,102-5,35.619901,139.641975,0,○,玉川中町公園北側
中町,102-6,35.6162444,139.6390354,0,○,中町幼稚園北側
中町,102-7,35.6160198,139.643532,0,○,玉川中学校南側
中町,102-8,35.616709,139.645431,0,○,中町四丁目公園西側
中町,102-9,35.6147593,139.6422581,0,○,谷沢川（田向橋南側）
中町,103-1,35.6137967,139.6467093,0,○,等々力園西側
中町,103-2,35.612976,139.645153,0,○,金剛寺東側
中町,103-3,35.610084,139.643796,0,○,玉川小学校南側
中町,103-4,35.611567,139.641199,0,○,中町二丁目公園南側
中町,103-5,35.6106548,139.6442311,0,○,玉川小学校東側
中町,103-6,35.60937,139.640968,0,○,中町南公園西側
中町,103-7,35.610779,139.643055,0,○,玉川小学校西側
中町,103-8,35.6084741,139.643609,0,○,権蔵橋公園西側
野毛,104-1,35.606179,139.643012,0,○,玉川野毛町公園北側
野毛,104-2,35.6056561,139.6413811,0,○,玉川野毛町公園西側
野毛,104-3,35.604696,139.643323,0,○,玉川野毛町公園東側
野毛,104-4,35.6055644,139.6376473,0,○,丸子川
野毛,104-5,35.601712,139.641576,0,○,丸子川（大日橋脇）
野毛,104-6,35.6037519,139.6440091,0,○,公園予定地南側
野毛,104-7,35.599874,139.643991,0,○,玉川清掃事務所西側
深沢,105-1,35.620264,139.647214,0,○,都立園芸高等学校北側
深沢,105-2,35.61968,139.651699,0,○,深沢神社東側
等々力,105-3,35.61608,139.650433,0,○,玉川郵便局東側
等々力,105-4,35.6135259,139.652629,0,○,東京都市大学等々力中学校・高等学校東側
等々力,105-5,35.615858,139.653959,0,○,等々力小学校南側
等々力,105-6,35.6159765,139.6530692,0,○,等々力小学校西側
等々力,105-7,35.614132,139.655576,0,○,畑南側
等々力,105-8,35.616139,139.6541994,0,○,等々力小学校東側
深沢,105-9,35.6168291,139.6480901,0,○,都立園芸高等学校南側
等々力,106-1,35.6088428,139.6481356,0,○,玉川総合支所西側
等々力,106-2,35.611327,139.650887,0,○,玉川神社西側
等々力,106-3,35.60756,139.64816,0,○,等々力２－３１遊び場東側
等々力,106-4,35.608972,139.649498,0,○,(財)東京都道路整備保全公社等々力駐車場西側
等々力,106-5,35.606863,139.646502,0,○,等々力渓谷公園東側
等々力,106-6,35.606883,139.652068,0,○,トヨタ自動車(株)等々力アパート北側
等々力,106-7,35.608567,139.649091,0,○,等々力自転車等駐車場
等々力,106-8,35.605862,139.652339,0,○,尾山台地区会館駐輪場北側
等々力,107-1,35.604368,139.649458,0,○,東京電力(株)尾山台変電所北側
玉堤,107-2,35.594938,139.651655,0,○,東京都市大学テニスコ－ト南側
尾山台,107-3,35.600001,139.655153,0,○,宇佐神社南側
尾山台,107-4,35.599824,139.650269,0,○,尾山台ナザレン幼稚園西側
玉堤,107-5,35.599037,139.64772,0,○,玉堤小学校南側
玉堤,107-6,35.596713,139.650548,0,○,東京都市大学南側
尾山台,107-7,35.60198,139.651272,0,○,狐塚古墳緑地西側
玉堤,107-8,35.599831,139.646918,0,○,玉堤小学校西側
等々力,108-1,35.609968,139.655564,0,○,等々力五丁目はなみずき公園西側
等々力,108-2,35.6096191,139.6577801,0,○,畑東側
尾山台,108-3,35.605029,139.656162,0,○,尾山台中学校南側
尾山台,108-4,35.602356,139.65598,0,○,東京電力(株)渋谷電力所多摩川分室西側
尾山台,108-5,35.6058861,139.6564556,0,○,尾山台中学校北側
尾山台,108-6,35.605581,139.655189,0,○,尾山台中学校西側
尾山台,108-7,35.604408,139.653483,0,○,尾山台小学校西側
尾山台,108-8,35.604827,139.654165,0,○,尾山台小学校北側
奥沢,109-1,35.606747,139.66505,0,○,玉川聖学院体育館棟北側
等々力,109-2,35.612707,139.656539,0,○,等々力六丁目公園南側
奥沢,109-3,35.607584,139.659631,0,○,浄真寺西側
等々力,109-4,35.610252,139.661243,0,○,八幡中学校南側
等々力,109-5,35.610984,139.660656,0,○,八幡中学校西側
奥沢,109-6,35.6065424,139.6618814,0,○,九品仏広場東側
奥沢,109-7,35.607175,139.664331,0,○,奥沢郵政社宅西側
等々力,109-8,35.6123866,139.6579938,0,○,等々力六丁目広場西側
玉川田園調布,110-1,35.601443,139.660705,0,○,東京都水道局研修・開発センター北側
尾山台,110-2,35.60028095,139.6575319,0,○,道路脇花壇
玉川田園調布,110-3,35.6009635,139.66255,0,○,玉川浄水場用地北側
奥沢,110-4,35.603441,139.660061,0,○,九品仏小学校北側
奥沢,110-5,35.6030353,139.6595778,0,○,九品仏小学校西側
奥沢,110-6,35.602774,139.660072,0,○,九品仏小学校南側
玉川田園調布,110-7,35.600955,139.659101,0,○,ぽかぽか広場西側
玉川田園調布,110-8,35.59933417,139.6628384,0,○,玉川浄水場用地東側
奥沢,111-1,35.605406,139.671436,0,○,奥沢神社東側
奥沢,111-2,35.606268,139.667043,0,○,自由が丘駅第一自転車等駐車場南側
奥沢,111-3,35.605562,139.667049,0,○,個人宅東側
玉川田園調布,111-4,35.6028897,139.6668238,0,○,八幡小学校北側
玉川田園調布,111-5,35.6022601,139.6664479,0,○,八幡小学校西側
奥沢,111-6,35.601521,139.668983,0,○,ユアスペースエンヤ奥沢４丁目北側
奥沢,111-7,35.605134,139.67119,0,○,奥沢神社南側
玉川田園調布,111-8,35.6023928,139.6674271,0,○,八幡小学校東側
奥沢,112-1,35.60757,139.672223,0,○,奥沢二丁目公園西側
奥沢,112-2,35.6062225,139.6730538,0,○,読書空間みかも南側
奥沢,112-3,35.59977,139.673102,0,○,旧奥沢まちづくりセンター南側
奥沢,112-4,35.599456,139.674443,0,○,奥沢小学校西側
奥沢,112-5,35.607208,139.674631,0,○,個人宅東側
奥沢,112-6,35.601547,139.672576,0,○,玉川消防署奥沢消防出張所東側
奥沢,112-7,35.5993227,139.6747591,0,○,奥沢小学校南側
奥沢,112-8,35.599771,139.6754705,0,○,奥沢小学校東側
奥沢,113-1,35.605478,139.678782,0,○,東京電力(株)大岡山変電所北側
奥沢,113-2,35.601867,139.67913,0,○,奥沢中学校西側
奥沢,113-3,35.603282,139.676622,0,○,井上香料製造所西側
奥沢,113-4,35.6007447,139.679577,0,○,奥沢公園東側
奥沢,113-5,35.602956,139.67999,0,○,奥沢中学校東側
奥沢,113-6,35.601866,139.680092,0,○,奥沢中学校南側
奥沢,113-7,35.599599,139.680151,0,○,南奥沢保育園南側
奥沢,113-8,35.598338,139.679864,0,○,東玉川小学校西側
東玉川,114-1,35.5936554,139.6768175,0,○,田園調布学園運動場西側
東玉川,114-2,35.5941921,139.6777941,0,○,田園調布学園運動場東側
東玉川,114-3,35.593773,139.677397,0,○,田園調布学園運動場南側
東玉川,114-4,35.597125,139.678642,0,○,東玉川地区会館北側
東玉川,114-5,35.596025,139.673997,0,○,田園調布学園第二校舎北側
東玉川,114-6,35.595494,139.679798,0,○,個人宅東側
東玉川,114-7,35.595123,139.673844,0,○,田園調布学園本校舎南側
東玉川,114-8,35.595214,139.679176,0,○,個人宅西側